{

    "code": 1,
    "curPage": 1,
    "totalNum": 22,
    "totalPage": 3,
    "pageSize": 10,
    "results": [
        {
            "address": "普陀区梅川路1318号(近真北路)",
            "latitude": 31.249249,
            "name": "百安居(普陀店)",
            "longitude": 121.389369
        },
        {
            "address": "上海市浦东新区银霄路393号百安居浦东商务大厦5~7层",
            "latitude": 31.211285,
            "name": "百安居(龙阳店)",
            "longitude": 121.56563
        },
        {
            "address": "上海市浦东新区蓝天路518",
            "latitude": 31.246625,
            "name": "百安居(金桥百安居店)",
            "longitude": 121.587112
        },
        {
            "address": "上海市杨浦区黄兴路1616号(松花江路大润发旁)",
            "latitude": 31.293179,
            "name": "百安居(杨浦店)",
            "longitude": 121.52919
        },
        {
            "address": "上海市闸北区共和新路3228号(地铁汶水路站大润发旁)",
            "latitude": 31.303007,
            "name": "百安居(共和店)",
            "longitude": 121.454456
        },
        {
            "address": "上海市闵行区顾戴路108号",
            "latitude": 31.152603,
            "name": "百安居(闵行店)",
            "longitude": 121.41306
        },
        {
            "address": "上海市青浦区沪青平公路1815号(徐泾家乐福旁)",
            "latitude": 31.1745,
            "name": "百安居(徐泾店)",
            "longitude": 121.2908
        },
        {
            "address": "闵行区银都路2358号(莲花路口)",
            "latitude": 31.104931,
            "name": "百安居(梅陇店)",
            "longitude": 121.418258
        },
        {
            "address": "上海市宝山区沪太路1800号(近汶水路)",
            "latitude": 31.293549,
            "name": "百安居(沪太店)",
            "longitude": 121.425294
        },
        {
            "address": "闵行区都市路5001号仲盛世界商城B1-1楼(近莘庄地铁南广场)",
            "latitude": 31.113429,
            "name": "百安居莘庄店",
            "longitude": 121.392861
        }
    ]

}